osm_id,name,lat,lon
1014510616,St Luke Hospital,27.4648038,95.3612101
1014526726,Pinewood Hospital,27.4970136,95.3516507
1014538808,Life Line Hospital - Tinsukia,27.4925976,95.3609741
1015801508,"L.G.B. Civil Hospital,Tinsukia",27.4991191,95.3587625
1015801510,Aditya Hospital,27.4941647,95.3484441
1025792264,Dr. S.K.Dey Hospital,27.4889906,95.3522515
1375751934,Civil Hospital Shillong,25.5679611,91.8807062
1578252835,Mahendra Mohan Choudhury Hospital,26.1854322,91.7404472
1690134377,NERIST Medical Unit,27.1298566,93.7365723
1739998743,Unknown,27.7396748,95.9117097
1740002014,Unknown,27.6715105,95.7576066
1987734179,Sanjivani Hospital,26.7575886,94.201555
2332856892,Jaintapur Upazila Health Complex,25.1361745,92.1265808
2332872340,Zakiganj Upazila Health Complex,24.8842777,92.3642292
2333164527,Akhaura Upazila Health Complex,23.8645379,91.203273
2333176629,Chagalnaiya Upazila Health Complex,23.0382598,91.5166759
2333176632,Parshuram Upazila Health Complex,23.2107104,91.4447134
2383182545,IMSR,26.7490914,94.1774577
2389291420,"Emanuel Hospital, Pailapool",24.8244991,93.0153112
2686563541,Modern Clinic,26.3240761,94.5217855
2689917278,Doctor's Clinic & Mediciner,26.3243522,94.5177439
2696256995,Impur Mission Hospital Clinic,26.3253666,94.5224108
3547099282,Health Sub Centre,27.7551763,95.0720967
3777970746,Mittal Pharmacy,27.4882355,95.3614383
3780974361,Agarwal Hospital and Research Centre,27.4860869,95.3797308
3914776960,Mawsumi Hospital,24.83185,92.800264
3921072129,Valley Hospital,24.783285,92.795832
3921072130,"South City Hospital, Cachar",24.7856047,92.7955799
3921072158,Nightingale Hospital,24.793674,92.7928722
3921072159,Medinova,24.7921663,92.7912446
4101022014,Govt Dispensary,26.5068894,94.4130927
4474581844,Community Health Centre,28.266996,95.6136558
4483884014,Community Health Center,27.5942488,93.8264146
4544430044,NE Homeopathic College and Hospital,27.0816216,93.6034293
4672136360,Ayursundra Superspeciality Hospital,26.1090489,91.7190636
4689339043,GU Hospital,26.1548233,91.6660347
4869717739,Bethany Hospital Outreach OPD Services,25.7556131,91.8856792
4871891718,Nongpoh Civil Hospital,25.909543,91.8768375
4920054783,Hm Hospital and Research Centre Pvt.Ltd,26.1310276,91.7858925
4925330128,Unknown,27.3313407,88.6135864
5025650757,"Community Health Centre, Sagolmang",24.9612467,94.0224994
5074262121,Community Health Centre,26.3933509,94.5331556
5187607837,District Hospital,28.7967948,95.910334
5187608025,Primary Health Center Etalin,28.6075944,95.8712339
5269826123,Raj Medicity,24.8160794,93.9434382
5320288022,General hospital,28.1688407,94.8010238
5596194222,Udalguri PHC,26.7478202,92.0974002
5843462204,Boikunthapur Health Sub-Centre,27.7500133,95.0526353
6093127315,Unknown,26.2075432,91.6776942
6098806650,Baptist Christian Hospital,26.6523508,92.7729652
6168636020,Gauhati Medical College and Hospital (GMCH),26.1595109,91.7686637
6197603548,GMCH Dental College,26.1602914,91.7701374
6197607043,GMCH Postmortem Ward,26.1600421,91.7711596
6205680429,Sanjevani Hospital,26.160924,91.7094281
6205680430,Swagat Super Speciality Surgical Institute,26.1603733,91.7073624
6255128239,CHIS (referal hospital),25.860236,93.7804314
6255151466,Eden Hospital,25.8999432,93.7007122
6255303391,Naga Hospital,25.6694195,94.0960672
6268608185,Brijondernagar,24.4838806,92.1588775
6387635521,"District Hospital, Bishnupur",24.6319847,93.7619193
6433556155,CHC Ngopa,23.881729,93.2118337
6467317786,Yingkiong District Hospital,28.6423099,95.025431
6493516285,"Yuksam, PHC",27.3708529,88.2252546
6763195716,Oking Hospital And Research Clinic Pvt Ltd,25.6688782,94.1056576
6846290087,50 bed Hospital,24.7781476,93.143353
6902545405,Government General Hospital Blood Bank - Namchi,27.1655039,88.360583
6902810705,Rahman Hospitals Private Limited,26.1350283,91.8095034
6905015648,diphu cancer hodspital,25.8429968,93.4331672
6905030116,Gomati District Hospital,23.5545804,91.4556831
6908083719,Kanchanpur Sub-divisional Hospital,24.0396985,92.1985665
6908083736,Manubazar Rural Hospital,23.0668626,91.6445223
6908083760,Rajib Gandhi Memorial Hospital,24.3180247,92.0025198
6908083765,Tripura Sundari Sub divisional Hospital,23.5363433,91.4974934
6908083775,Belonia Sub-divisional Hospital,23.2505139,91.4676967
6908093887,Mothers Care Children Hospital and Research Centre,24.8035935,93.9266829
6908093894,"Jivan Hospital, Kakching",24.4961834,94.0034947
6908093911,Suba Hospital and Assisted Reproductive Centre,24.8126913,93.9252124
6908093918,"Shija Hospitals and Research Institute, Langol",24.8353055,93.9139169
6908093923,Christian Hospital,24.824927,93.9453457
6908093934,Public Hospital and Research Institute,24.8118836,93.9504654
6908094337,Mahanam Seva Sadan,24.3900466,92.160176
6908097600,"District Hospital, Tawang",27.5890458,91.8646409
6908098039,J.N. Hospital Management Society,24.8115897,93.9619821
6908100786,Agartala Hospital And Research Centre,23.8303051,91.2784789
6908100806,"Bishalghar S.D. Hospital, West Tripura",23.6828067,91.2794593
6908100827,Amarpur Sub divisional Hospital,23.5166478,91.6502009
6908100832,Dharmanagar Sub-divisional Hospital,24.3903666,92.1590334
6908108234,Chailengta Sub Divisional Hospital,23.9511506,92.0077421
6908108239,"Bimal Sinha Memorial S.D. Hospital, Dhalai",24.1973668,91.8280891
6908108252,Khowai District Hospital,24.0715915,91.6025823
6908108263,"Govinda Ballav Panth Hospital, West Tripura",23.8596535,91.2916915
6908111085,Devlok Hospital,23.8410733,91.282737
6908111090,"Cancer Hospital,West Tripura",23.8608346,91.294603
6908111111,Agartala Govt Medical College and GBP Hospital,23.8602986,91.2928221
6908120436,Peoples Health Foundation Centre,24.3306179,93.6886463
6908120441,Sielmat Christian Hospital and Research Center,24.349423,93.7014189
6908120446,Boriatari Memorial Hospital,27.0952799,93.6782125
6908120471,Faith Hospital,25.9051075,93.7196231
6908120476,Zion Hospital and Research Centre,25.9161945,93.7476133
6908120485,Eleutheros Christian Society Hospital,26.2371121,94.8134185
6908120490,Y. Rochill Hospital,26.0149631,94.5262223
6908120501,Nikos Hospital And Research Centre,25.9086408,93.715467
6908120508,Tara Memorial Hospital,27.1281628,93.7454997
6908120513,Polo Hospital Pvt Ltd,27.0843407,93.6054642
6908120518,Central Referral Hospital,27.3163644,88.5975829
6908120519,Sikkim Manipal Institute of Medical Sciences,27.3174225,88.5975802
6908213058,R.P. Chest Hospital,25.5771305,91.8662676
6908445869,"Metro Hospital, Dimapur",25.9140329,93.716442
6909772443,Tura Civil Hospital(DH),25.5147491,90.2037942
6909772449,Dr. H. Gordon Robert Hospital (Khasi-Jaintia Presbyterian),25.584894,91.8751504
6909859202,"Nazareth Hospital, Kolasib",24.2334996,92.6740779
6909859216,"CHC, Vairengte",24.5079987,92.7664854
6909859217,"District Hospital,Kolasib",24.2314023,92.6766193
6909859223,"PHC, Rawpuichhip",23.7841698,92.5601256
6909859294,Greenwood Hospital,23.7555439,92.7310816
6909859305,"Sub-District Hospital,Saitual",23.6821385,92.9630148
6909859395,"District Hospital, Serchhip",23.3078982,92.8556728
6909859417,"Christian Hospital, Lawngtlai",22.5356749,92.8981758
6909859429,"District Hospital, Siaha",22.4883875,92.9828605
6909859499,"District Hospital, Mamit",23.909285,92.4947387
6909859505,"CHC, Sakawrdai",24.2261924,92.9522659
6909859524,Alpha Hospital,23.7093053,92.7195313
6909859549,Nazareth Hospitals,23.7489767,92.7224247
6909859597,"State Referral Hospital,Falkawn",23.6242176,92.7281633
6911254756,Maraland Gospel Centenary Hospital,22.4890083,92.9796365
6911271597,"Lcmc Hospital, Lawngtlai",22.5394646,92.8858672
6911271631,"Adventist Hospital,Vaivakawn",23.7368296,92.7101871
6911271636,Bethesda Hospital,23.7504614,92.726619
6911271641,Presbyterian Hospital,23.687823,92.8594648
6911715898,Chilarai Hospital & Research Centre,26.4656509,90.5629715
6911715903,Lower Assam Hospital And Research Centre,26.4929099,90.5515413
6911715904,Swagat Hospital And Research Centre,26.4830828,90.5529092
6911715909,S.M. Hospital and Diagnostic Centre,26.4894843,90.5510893
6911715914,"R.N.B. Civil Hospital, Gossaigaon",26.4530899,89.9763791
6911715919,Nongstoin District Hospital,25.5195842,91.2681726
6911724111,Tolaram Bafna Kamrup District Civil Hospital,26.2074223,91.6771799
6911724131,Sristi Hospitals And Research Centre Pvt Ltd,27.4930354,94.9279489
6913038500,HGM Nursing Home,26.5106294,93.965819
6913038505,Aruna Memorial Hospital,26.1658526,91.7691153
6913038510,Dr Bhubaneswar Borooah Cancer Institue,26.1653519,91.7470568
6913038537,Nightingale Hospital,26.1504675,91.7821106
6913038542,"Hayat Hospital, Kamrup",26.1390895,91.7463206
6913038543,Solace Hospital and Research Centre,26.1646874,90.6248474
6913038544,Seven Sisters Hospital & Research Centre,26.1508208,90.6181942
6913038550,Dr. Dhani Ram Baruah Heart Institute and Research Centre,26.1254312,91.9388831
6913038555,"Sun Valley Hospital, Guwahati",26.1382811,91.8010202
6913038569,Haji Abdul Majid Memorial Hospital and Research Centre,26.0158947,92.8684401
6913054603,North East Cancer Hospital And Research Institute,26.1007508,91.8699154
6913054638,Arya Hospital (A Unit Of North Eastern Medical Research Institute Ltd),26.1746258,91.7525876
6913054639,Pratiksha Hospitals,26.158658,91.8118054
6913054744,"Civil Hospital, Dhubri",26.035426,89.9644138
6913054780,Agile Hospitals Pvt Ltd,26.1221319,91.8062693
6913054785,Biroja Hospital,27.4913069,95.3517164
6913054790,"Sanjivani Hospital, Jorhat",26.7466487,94.2021123
6913054830,Satribari Christian Hospital,26.1769282,91.7465553
6913054930,Guwahati Netralaya Eye Hospital,26.1714995,91.7376155
6913054937,"KGMT Multispeciality Hospital, Hatigarh",26.1719851,91.7814441
6913054942,Guwahati Eye Hospital,26.1717757,91.7608166
6913054952,Wintrobe Hospital,26.1854972,91.7560047
6913054957,Institute Of Human Reproduction,26.1669226,91.7312439
6913054967,Marwari Hospital and Research Centre,26.1721356,91.7404117
6913054968,Midland Hospital,26.1617305,91.7798576
6913054978,City Heart Hospital,26.1724967,91.7714274
6913054985,Dispur Hospitals Pvt Ltd,26.1496128,91.7867147
6913175903,Gnrc Six-mile Hospital,26.1311817,91.8079403
6913175912,G N R C Heart Institute,26.1389733,91.7943965
6913288139,Nemcare Hospital,26.1634946,91.7683697
6913288140,Down Town Hospital Ltd.,26.1392003,91.7994256
6913288170,Gauripur Hospital,26.075063,89.9629453
6913288175,Vivekananda Kendra-Nrl Hospital,26.5914174,93.7494734
6913288176,Lifeline Hospital and Research Centre,26.5159925,93.9748279
6913288181,Titabar SDC Hospital,26.594792,94.1924442
6913293192,"Florence Hospital, Goalpara",26.1698607,90.623914
6913293197,Mid Town Hospital and Research Institute,27.2482332,94.1045107
6913293202,Sanjivani Hospital And Rcs Ltd,26.3254496,90.9986253
6913293207,Pragati Hospital And Research Centre,26.9977983,94.6198744
6913293208,Sampreeti Hospital,26.993347,94.6428274
6913293231,Skylark Hospital,26.6302423,92.7974206
6913293236,E M M Hospital And Research Centre,26.6218315,92.7955672
6913293263,"Lions Eye Hospital, Cachar",24.82903,92.793007
6913293268,"Life Line Hospital, Cachar",24.8078658,92.7950697
6913293273,H M Hospital and Research Center,27.1857364,94.913941
6913293278,"B. K Memorial Hospital, Tezpur",26.6252346,92.8004099
6913293283,East Point Hospital And Research Centre,26.9857955,94.6507171
6913293288,Rontix Hospital,27.2899028,95.6886448
6913293301,Brahmaputra Diagnostic and Hospital Ltd,27.4915127,94.9271375
6913293325,Vincenza Gerosa Hospital,27.4704798,94.9272823
6913293330,Srimanta Sankardeva Hospital And Research Institute,27.4729107,94.9111354
6913293331,Aditya Diagnostics and Hospitals,27.4915008,94.9312493
6913293371,Medicare Diagnostic And Hospital,27.4896615,94.9235326
6917894485,CHC Government Hospital,27.9815616,94.6858624
6938944732,"District Hospital, Bomdila",27.2655136,92.4201467
6969705853,Supercare Hospital,25.5608599,91.911378
6969819078,The Children's Hospital,25.5658671,91.9112432
7095155800,CHC Nungba,24.7463548,93.4250735
7095155806,Ukhrul District Hospital,25.0981451,94.3651788
7095155813,Churachandpur District Hospital,24.3429852,93.6928709
7095155828,"District Hospital, Tamenglong",24.9855683,93.5025164
7095155876,Jiribam CHC,24.8072194,93.1142523
7095155881,Parbung district Hospital,24.2571178,93.1066775
7100882236,"Mon, District Hospital",26.7238973,95.0287876
7100882241,"Tuensang, District Hospital",26.2529567,94.8178952
7100882248,"Kiphire, District Hospital",25.8826359,94.781588
7100882252,"Longleng, District Hospital",26.4929778,94.8042633
7100882264,"District Hospital, Dimapur",25.904959,93.731523
7100882272,"Zunheboto, District Hospital",26.0030617,94.5236166
7100882279,"CHC, Medziphema",25.76274,93.884455
7100882283,"Peren, District Hospital",25.5354667,93.7352403
7100882296,"Govt. Hospital, Noklak",26.2004719,95.0251042
7103971889,"District Hospital, Yingkiong",28.6417004,95.0250781
7103971893,"Government Hospital, Nampong",27.292495,96.112927
7103971896,"District Hospital, Khonsa",26.9922136,95.5008622
7118826339,Geyzing District Hospital,27.291121,88.256922
7118826340,Singtam District Hospital,27.2298217,88.4950137
7127376529,"Christian Hospital,M Kawnpui",22.332288,92.71235
7127376531,"District Hospital,Lawngtai",22.536451,92.8886349
7127376536,"CHC,Chawngte",22.6163566,92.6382886
7127376539,Vaivenga Hospital,23.7334106,92.7159388
7127376542,Aizawl Hospital & Research Centre,23.7189081,92.7175467
7127376544,Kulikawn Hospital,23.7085438,92.7154669
7127376546,"Civil Hospital,Tlabung",22.9063694,92.4698014
7127376547,Borapansury Hospital,22.7066754,92.5292909
7127376550,"Civil Hospital,Lunglei",22.8863179,92.744237
7127376552,"B.N. Hospital,Kulikawn",23.7110935,92.7193766
7127376559,Lairam Christian Medical Centre & Hospital,22.511206,92.889175
7127376561,"District Hospital,Champhai",23.481,93.309599
7127657819,"District Integrated AYUSH Hospital, Gomati",23.4848604,91.4983684
7127657820,Sub-Divsional Hospital,23.310504,91.5575974
7127657824,Gandacherra Sub Divisional Hospital,23.6050187,91.8177781
7127657825,Pecharthal Hospital,24.1903303,92.1042451
7127657835,"District Hospital, Unakoti",24.304628,92.033346
7127657836,Taksapara hospital,23.5641251,91.291481
7127657874,Sonamura Gramin Hospital,23.48445,91.263053
7127657886,District Hospital South,23.316526,91.555177
7127657901,Dhalai District Hospital,23.9551603,91.8252174
7138660278,Holy Cross Hospital,25.5179517,90.1704141
7138660279,Nongstoin Civil Hospital,25.556393,91.2290792
7138660288,"Capt. Williamson Memorial Hospital, Baghmara",25.1987267,90.6309637
7138660298,Holy Cross Private Hospital,25.560466,91.6307355
7138660307,Dr. Norman Tunnel Hospital,25.444011,92.198903
7138660313,Tura Maternity and Child Hospital(SDH),25.514655,90.219953
7138660337,Tirot Sing Memorial Hospital,25.5541791,91.6330915
7138660375,Jowai Civil Hospital,25.467945,92.260988
7138660381,Williamnagar Civil Hospital,25.5146304,90.6046435
7138660404,Reid Provincial Chest Hospital,25.5762376,91.8666306
7150731689,Bikali Model Hospital,25.9629778,91.0542472
7150731697,Joypur Government Hospital,24.8821819,93.0637604
7150731701,"F.R.U, Kalain",24.9684172,92.5730099
7150731714,Sonapur District Hospital,26.1212135,91.9761266
7150731745,Kachuadam MG Model Hospital,24.822849,92.432166
7150731748,Girishganj Model Hospital,24.883091,92.3098
7150731759,Azara 30 Bedded Rural Hospital(F.R.U),26.124633,91.617525
7150731762,Patherkandi MG Model Hospital,24.584103,92.3411897
7150731765,"Civil Hospital, Hatsingimari",25.721206,89.9047078
7150731769,Kheroni Model Hospital,25.849921,92.8781343
7150731781,Pandu FRU Hospital,26.1606497,91.6887221
7150731784,Jirighat Hospital,24.8099512,93.105894
7150731794,Salchapra Hospital,24.824249,92.6621686
7150731799,Bamunigaon Model Hospital,26.0112846,91.2996591
7150731815,Vernerpur T.E. Hospital,24.5163595,92.6140897
7150731818,Jhowdanga hospital,25.584891,89.88231
7150731834,Govt. Ayurvedic College & Hospital,26.1495333,91.6674002
7150731838,Dudhnoi (F.R.U),25.9829392,90.7895475
7150731843,KATIGORAH MODEL HOSPITAL,24.8766476,92.5730321
7150731850,Guimara Hospital,26.115257,91.46451
7150731854,"CHC, Howraghat",26.1146348,93.0355876
7150731869,"Civil Hospital, Hailakandi",24.6718333,92.5632382
7150731870,Kampur Hospital,26.1671521,92.6537353
7150731877,Dhevdevi hospital,26.0796899,89.8715609
7150731892,Ambari Bazar Model Hospital,26.1020669,90.3944379
7150731894,"Srigouri, CHC",24.8616184,92.5204243
7150731897,Thaligram Hospital,24.944708,92.928747
7150731901,Mahatma Gandhi Model Hospital,24.4147648,92.5733758
7150745406,St. Lukes Hospital,27.4765764,95.1650112
7150745407,Deepling Tea Estate Hospital,27.108545,95.03788
7150745410,Bokel Tea Estate Hospital,27.45783,94.9771994
7150745414,Manjushree Hospital,26.9712074,95.0899633
7150745420,Dhakuakhana F.R.U,27.1958851,94.4223158
7150745422,Romai Tea Estate,27.386318,95.0457564
7150745424,Khumtai Tea Estate Hospital,27.1763415,94.9448362
7150745428,Greenwood Tea Estate Hospital,27.509819,95.017022
7150745436,Assam Medical College and Hospital,27.487594,94.940004
7150745444,Laluk Model Hospital,27.1239777,93.9295187
7150745446,Ramdhan Dikhari Hospital,27.7246434,95.0564931
7150745450,Bengenagarah Hospital,27.350498,94.543537
7150745451,Chapakhowa F.R.U,27.9255347,95.7629805
7150745454,Maijan Tea Estate Hospital,27.5094432,94.9757439
7150745466,Dhemaji Civil Hospital,27.4580357,94.5743654
7150745467,Mohokutie Tea Estate Hospital,27.0903275,94.8081909
7150745468,"Government Hospital, Dighaljuli Gaon",26.8602879,92.5577894
7150745469,Phillobari Model Hospital,27.550876,95.6926
7150745471,Sibsagar Civil Hospital,26.986092,94.633868
7150745473,Nonaipara Hospital,26.845787,91.871661
7150745476,Jaboka Tea Estate Hospital,27.018378,95.043379
7150745477,Dolouhat Tea Garden Hospital,27.183871,93.964693
7150745480,Towkok Hospital,26.9943545,95.0709836
7150745481,Moranhat Government Hospital,27.181087,94.911762
7150745483,Longpatia Hospital,27.0797791,95.0968389
7150745488,Sonari Civil Hospital,27.032335,95.058492
7150745490,Deezo Tea Garden Hospital,27.2727496,94.0174109
7150745492,Dikom Tea estate hospital,27.4603111,95.0850978
7150745498,Panigaon Hospital,27.1401547,94.1092315
7150745499,Borgang Model Hospital,26.8361293,93.2919997
7150745503,"CHC, Demow",27.127612,94.739596
7150745507,Patsaku Hospital,27.0258483,94.8284735
7150745509,Kalabari Model Hospital,26.8809204,93.7538581
7150745512,Nigam hospital,27.2236641,95.3130304
7150745517,Hazelbank Tea Estate Hospital,27.4922491,95.0868214
7150745518,Narayanpur Model Hospital,26.9666701,93.8661852
7150745527,"Civil Hospital, North Lakhimpur",27.2613471,94.1003308
7150745530,Hingrijan Tea Estate Hospital,27.148293,94.936707
7150745532,Jonai Civil Hospital,27.837655,95.211262
7153254922,"CHC, Borholla",26.449904,94.1326737
7153254932,Dakshingaon Hospital,26.4107888,91.5113527
7153254935,Kachomari Hospital,26.1961824,93.9295837
7153254940,Kaoimari Nurul Hussain F.R.U,26.4671094,92.8179123
7153254945,Mowamari Model Hospital,26.4657206,92.8538766
7153254952,Manikpur Model Hospital,26.4709474,90.8027602
7153254953,Dhaoliguri Hospital,26.4405658,90.2237457
7153254955,Bhurbandha Model Hospital,26.3070013,92.3635211
7153254971,Boitamari Model Hospital,26.3435674,90.5154491
7153254973,"RNB Civil Hospital, Kokrajhar",26.4017828,90.2742484
7153254987,Duni Model Hospital,26.4604684,91.8283762
7153254992,Urangial Hospital,26.4256728,94.1294188
7153254994,"Maternity & Child Health Hospital, Mohkhuli",26.3666002,92.714374
7153254998,Ga-Khajua Hospital,26.3642822,92.5542803
7153255009,"Mahatma Gandhi Model Hospital , Makhibaha",26.4457506,91.2595742
7153255036,Chandamama Model Hospital,26.282504,90.778365
7153255053,Kirtanpara Hospital,26.374117,90.764245
7153255060,Dagaon Hospital,26.441283,92.613613
7153255087,"Civil Hospital, Bongaigaon",26.4312897,90.5770438
7153255091,Bagribari Model Hospital,26.1982891,90.1416556
7153255108,Morigaon Civil Hospital,26.252273,92.3548836
7153255124,Rupohi Model Hospital,26.4156418,92.7428996
7153255125,B.P. Civil Hospital,26.344804,92.689441
7153255153,"Mahatma Gandhi Model Hospital, Belsor",26.383854,91.349695
7153255155,Kondoli Model Hospital,26.226166,92.7730114
7153255156,S.M.K. Civil Hospital,26.4477049,91.4364392
7153386668,Salbari Model Hospital,26.6337966,91.0964259
7153386670,Orang Tea Estate Hospital,26.7253552,92.3190642
7153386671,Kanaklata Civil Hospital,26.628821,92.796941
7153386677,Jalukanibari Hospital,26.6456268,94.1876136
7153386683,Hattigor T.E. NHRM Hospital,26.7787135,91.9323039
7153386687,Amgoori Tea Estate Hospital,26.759156,94.566161
7153386690,"Bhooteachang Hospital, Bhooteachang",26.7952297,91.891026
7153386692,Panisheli Hospital,26.662206,91.767289
7153386696,Sirajuli Model Hospital,26.699467,92.400363
7153386699,Majuli Hospital,26.803012,91.945076
7153386700,"Civil Hospital, Milanpur",26.6883632,92.7403561
7153386704,Bamunjuli Tea Estate Hospital,26.8156567,91.8313484
7153386707,Charingia CHC,26.6003726,93.9488146
7153386710,Suola Tea Estate Hospital,26.718317,91.75147
7153386714,Rowta Model Hospital,26.716299,92.193553
7153386751,Shyampur hospital,26.498934,92.216719
7153386758,Udalguri Civil Hospital,26.719912,92.078817
7153386761,JSB CIVIL HOSPITAL,26.5254284,90.4903363
7153386764,Balichang Model Hospital,26.830727,93.073837
7153386768,"Sub-Divisional Hospital, Biswanath Charali",26.72667,93.147765
7153386773,Charna bazar hospital,26.6362219,91.1744098
7153386775,Paneri Tea Estate Hospital,26.7449311,91.8913927
7153386777,Dimakuchi Tea Estate Hospital,26.743026,91.843191
7153386779,155 Base Hospital,26.6555774,92.7876709
7153386789,Pakribari Hospital,26.7827777,92.0497212
7153386806,"FRU, Teok",26.835227,94.4086004
7153386811,Bandarmari Hospital,26.7270612,92.6484096
7153386814,Atterikhat Tea Estate Hospital,26.7267163,91.7513379
7153386817,Nagsankar Hospital,26.734572,92.991403
7153386830,Barpeta Road F.R.U,26.4908364,90.9685928
7153386833,Kwuari Hospital,26.768397,93.1439
7153386835,Dekargaon Hospital,26.680182,92.765946
7153386838,Borsillah Tea Estate Hospital,26.783763,94.6148137
7153386839,Dr. Ravi Boro Civil Hospital,26.664079,91.340726
7153386859,Nikashi Civil Hospital,26.728677,91.378296
7153386863,Bhergaon Model Hospital,26.638823,91.824156
7153386865,Kusumtala Model Hospital,26.7363291,92.9650646
7153386866,Tihu F.R.U,26.4766416,91.2715269
7153386869,Mazrowmari Hospital,26.7311844,92.3662962
7153386873,Borengajuli Tea Estate Hospital,26.7397494,91.8072736
7153386874,Swahid Kamala Miri Civil Hospital Bokakhat,26.641792,93.598697
7153386876,New Bongaigaon Railway Hospital,26.4815876,90.5150881
7153386888,Lorimukh Hospital,26.494423,92.809737
7153386890,Dusutimukh hospital,26.6970438,93.820751
7153386892,Behali Hospital,26.801021,93.348082
7153386902,Pathsala Sub-Divisional Civil Hospital,26.5078672,91.1672137
7153386905,Subhaijhar Model Hospital,26.596512,90.6077992
7210907225,Melaghar hospital,23.4931778,91.3323109
7388623578,Sharifpur Health Center,24.344284,91.9774391
7466289937,Unknown,23.8191641,91.2337122
7485259761,PHSC & HWC Suangdoh,24.0866545,93.4819185
7532350905,Ganeshbari Tea Hospital,27.4861949,95.0527014
7532350908,Medicare Hospitals,27.4899224,94.9234647
7532350915,Astha Hospital,27.4891852,94.9163573
7532350917,Archana Trauma & Orthopaedics Hospital & Research Centre,27.490729,94.929957
7532350920,Nahortoli Tea Garden Hospital,27.4699353,95.0821294
7532350927,Sewpur T.E. Hospital,27.463452,95.362283
7532350928,R.C. Agarwal Memorial Hospital,27.485901,95.379983
7532350931,M.F. Hospital & Research Centre,27.4795977,94.9001477
7532350938,G.M. Hospital,27.491458,94.9329053
7532350947,APL Hospital,27.1843094,95.3663889
7532350974,Apollo Hospitals,27.4936184,95.3488317
7532350988,Sonari Town Hospital,27.0261774,95.0183865
7532350990,Nudwa Hospital,27.48202,95.101352
7532351000,BCB Care Hospital,27.4701787,94.5580656
7532351004,Mili Hospital & Recharch Centre,27.4723298,94.5580985
7532351007,Erc Eye Care Hub Hospital,26.993236,94.642705
7532351016,Archana Hospital,27.4891115,94.9298835
7532351019,Netra Jyoti Eye Hospital,26.9804987,94.6378242
7532351020,Rajapukhuri Hospital,27.03222,95.058501
7532351030,Holy Child Clinic and Hospital,27.4898148,94.9258202
7532769918,Nalbari Multispeciality Hospital,26.4409882,91.4358691
7532769922,Al-Salam Hospital,26.17965,90.606702
7532769931,Life Care Hospital,26.161551,90.621609
7532769949,Goalpara Civil Hospital,26.140962,90.6098175
7532769952,Nalbari Eye Hospital,26.4385256,91.4430654
7532769956,Medinova Hospital,26.447815,91.4301451
7532769973,Indu Eye Hospital,26.4423588,91.4429223
7532769999,United Hospital,26.44448,91.4322423
7532770001,Dakhingaon State Hospital,26.4371946,91.447095
7532770005,NIRC Hospital,26.3353589,91.0019536
7532770006,Fuleswari Nurshing Home,26.443121,91.43806
7532770011,Old Civil Hospital,26.176516,90.624388
7537159748,Hojai Civil Hospital,26.0017261,92.8481676
7537159756,Ananta Memorial Hospital,26.6351609,92.7839754
7537159766,Lumding Civil Hospital,25.7622761,93.1749268
7537159770,Garmari Hospital,26.2587936,92.2321557
7537159776,Sultan Hospital,26.236991,92.3474653
7537159783,Eye Hospital,26.0057065,92.845938
7537159787,Dew Care Hospital & Research Centre,26.3564691,92.6644501
7537159793,"New Civil Hospital, Lumding",25.7313533,93.181519
7537159814,M G Model Hospital,26.117993,92.19398
7537159840,Old Civil Hospital,26.7042538,92.477102
7537159848,Jagiroad Health and Service Hospital,26.1191121,92.1944842
7537159859,Dristidaan Eye Hospital,26.7029297,92.4781376
7537680964,Dr. Nitin Dutta Eye Foundation Hospital,26.1676312,91.7788063
7537681005,Eye Clinic,26.1310897,91.8088994
7537681013,Sarma Gynae & Obs Clinic,26.1304526,91.8079674
7537681034,Outpatient clinic1,26.1313723,91.8085923
7540578844,K P Memorial Hospital,26.7425645,93.1541613
7540578850,Railway Hospital,24.8607814,92.3706032
7540578856,New Life Line Hospital,24.8573379,92.368921
7540578866,City Orthopaedic Hospital,26.7669056,94.2071066
7540578869,K.K.Civil Hospital,26.5096254,93.9642533
7540578881,"Holy Spirit Hospital, Haflong",25.1672497,93.0128173
7540578884,Netraloi Eye Hospital,26.7427548,93.1550986
7540578910,Ashirwad Hospital,24.8620579,92.3699007
7540578916,Chandraprabha Eye Hospital,26.7621573,94.208063
7540578917,KKC Hospital,26.5121084,93.9673357
7540578931,Mission Hospital,26.7385005,94.2010669
7540578935,Shifa Hospital & Research Centre,24.6739427,92.5647365
7540578939,Urban Hospital,24.871633,92.371854
7540578943,IMS Hospital,24.871251,92.3599259
7540578946,"Mother & Child Health Wing,Civil Hospital",24.8680876,92.362293
7540578948,JK Hospital,26.742704,93.1561416
7540578954,"Red Cross Hospital, Karimganj",24.8694259,92.3583703
7540578960,North Karimganj New Hospital,24.8677918,92.3624667
7541546151,Maternity & Child Welfare Hospital,26.1458262,91.7274383
7541546161,Critical Care Hospital,26.1454737,91.7411135
7541546188,"Central Hospital, Maligaon",26.1509561,91.694464
7577517041,Rasongsli Nursing Home,25.2873638,92.0968584
7577517042,CAPF Hospital,25.582507,91.9217576
7577517043,Regional Cancer Centre,25.592821,91.942756
7577517044,Ayurvedic & Homoeopathy Hospital,25.5958462,91.9474231
7577517045,Nigrimes Hospital,25.588019,91.913836
7577517046,Composite Hospital,25.590552,91.910655
7577517049,ICAR Hospital,25.6789181,91.9094552
7577517055,Civil Hospital,25.4362133,92.2052507
7577517063,Nazareth Hospital,25.4682013,92.2876219
7577517076,Woodland  WK Hospital,25.4692031,92.2391729
7577517077,Jiban Ram Goenka Hospital,25.5752156,91.8714508
7577517078,CHGS Wellness Centre,25.5721912,91.8867398
7577517079,John Roberts Hospital,25.5647415,91.9031082
7579580173,Danak Samguri Hospital,25.5165354,90.1671545
7579580175,"Civil Hospital, Ampati",25.4940162,89.9432399
7579580176,Adventis Mission Hospital,25.6520385,90.3347324
7579580179,Sampalgre Hospital,25.49798,90.618645
7579580180,Maternity and Child Hospital,25.5201568,90.1767347
7579580181,CRPF Composite Hospital,25.5227112,90.18235
7579580182,Gangdobi Hospital,25.912899,90.628695
7579580191,T.B. Hospital,25.5212405,90.2171856
7579580192,T.B. Hospital,25.5079447,91.2738426
7579580193,Civil Hospital,25.9165611,90.6493529
7579580194,Khaldang Rongsrek Hospital,25.9474414,90.6056206
7580090619,Remedy Hospital,24.802966,93.9475392
7580090626,Noor Hospital And Research Institute,24.705028,93.946242
7580090634,Incinerator Plant Hospital,24.8103168,93.9641929
7580090635,Care Foundation Hospital,24.8049777,93.9473355
7580090640,Hillside Charitable Hospital & Research Institute,24.8270906,93.9332964
7580090643,Piles Clinic & Hospital,24.6486497,93.9773152
7580090647,Apex Hospital & Research Centre,24.7782009,93.9277701
7580090651,Advanced Hospital,24.7982563,93.9460854
7580090658,Peace Hospital And Research Institute,24.8120518,93.932019
7580090661,District Hospital,24.625182,94.012785
7580090663,Ayush Hospital,24.831337,93.925439
7580090665,Robins Lisa Hack Hospitals,24.7794408,93.9448822
7580090672,Asian Hospital,24.787954,93.9224072
7580090675,City Hospital,24.821748,93.934591
7580090677,Vision Plus Hospital,24.8133317,93.9267238
7580090678,City Hospital & Research Centre,24.825042,93.944864
7580090679,Iboyaima Hospital & Research Centre,24.7843453,93.9388357
7580090683,Maipakpi Maternity and Child Hospital,24.8155071,93.9427306
7580090685,Chamber Hospital,24.809745,93.936582
7580090686,Shija ENT Hospital,24.8250246,93.93191
7580090687,Sky Hospital & Research Centre,24.813033,93.928092
7580090695,Mangal Hospital,24.8147178,93.9483091
7580090698,Igastrocare Hospital,24.790429,93.925032
7588412939,District Hospital,24.315521,93.984819
7588412940,Ayurvedic Hospital,24.6497008,93.8989569
7588412944,Women Hospital,25.107044,94.36126
7588412945,Tuberculosis Hospital,24.6356578,93.7650877
7588412948,Nazaret Hospital,24.3427925,93.695123
7588412952,Sun Hospital,24.5194473,93.9426554
7588412954,District Hospital,25.285501,94.030172
7588412958,Rangini Hospital,24.645764,93.8976452
7588412962,Nambol Hospital,24.719028,93.846725
7588412964,CHSRC Hospital,25.088019,94.3627241
7588412965,Nature Cure Hospital,24.5063272,93.9654142
7588412967,EMA Hospital,24.497729,93.982997
7588412969,ACS Hospital,24.7170462,93.8328903
7588412970,Dam Dam Hospital,25.146992,93.967622
7588412973,Kangpoki Mission Hospital,25.160697,93.96399
7588412974,District Hospital,24.975133,93.497247
7588412975,Atipu Hospital,24.9859138,93.4994811
7588412976,"CHC, Jiribam",24.806942,93.1158562
7588412977,District Hospital,24.7793336,93.1396322
7588412978,Jiribam Hospital,24.778685,93.1387555
7614502531,Lenjem Hospital,26.330963,94.530994
7614502538,Civil Hospital,25.5734942,94.3047665
7614502539,City Hospital,25.906627,93.731253
7614502541,Unit Hospital,26.2704552,94.4469613
7614502542,Sanis Hospital,26.2057603,94.2004138
7614502546,Khuzama T.B. Hospital,25.5242888,94.1308005
7614502552,Assamrifle Hospital,26.3176018,94.5094781
7614502553,Civil Hospital,25.8820969,94.7815154
7614502559,Dimapur Hospital and Research Centre,25.9055101,93.7500946
7614502562,N.Ezung Hospital,26.091946,94.257752
7614502565,Assamrifle Hospital,25.692885,94.4557927
7614502568,Fellowship Nursing Home,25.9142282,93.7096698
7614502572,Zuketsa Hospital,25.5381468,94.228953
7614502573,Nagaland Multispeciality Hospital & Research Centre,25.908579,93.716553
7614502575,Kezocha Hospital,25.592514,94.189416
7614502576,Shamator Hospital,26.070246,94.875934
7614502578,Regimental Hospital,25.732764,94.108014
7614502587,General Hospital,25.7227121,94.3242418
7614502588,Olive Christian Hospital and Reserch Centre,25.8872853,93.7556933
7614502589,Rapha Hospital,26.7219386,95.0289195
7614502593,JK Hospital,25.909739,93.712297
7614502598,New Puilwa Hospital,25.4816237,93.7887183
7614502599,Kohima Mental Hospital,25.6448895,94.1032895
7614502600,Unit Hospital,26.8972914,95.0894333
7614502604,Referral Hospital,25.801377,93.784951
7614502613,NPPC Hospital,26.7142848,94.6351003
7614502615,Civil Hospital,25.8103371,94.845178
7614502620,Shamrock Hospital,25.9083545,93.7035979
7615097179,Tashiding Hospital,27.327142,88.286698
7615097183,District Hospital,27.1712753,88.3750115
7615097189,Lachen Hospital,27.7296019,88.5508921
7615097191,Baidhya Ayurvedic Hospital,27.2276025,88.495588
7615097197,Mangan District Hospital,27.490878,88.531877
7615097198,Government Hospital,27.314817,88.597016
7615097203,STNM Multispeciality Hospital,27.2436348,88.5987252
7615097209,50 Bedded Ayush Hospital,27.289573,88.245448
7615441763,Samaritan Hormin Hospital,27.10857,93.697428
7615441764,Governmnet Hospital,28.3214998,94.9541877
7615441765,District Hospital,27.353033,93.043222
7615441766,Niba Hospital,27.0973479,93.6770975
7615441767,District Hospital,28.141538,95.8405081
7615441768,Tago Memorial Hospital,27.1301214,93.7474761
7615441769,Heema Hospital,27.1008421,93.6281623
7615441770,District Hospital,27.9280499,96.1581662
7615441771,Longing Hospital,26.88521,95.321261
7615441773,District Hospital,27.1392719,95.7386846
7615441776,Men-Tsee-Khang Hospital,27.9116303,96.1287519
7615441777,RGU Health Centre,27.153219,93.7673813
7615441778,Government Hospital,27.664404,95.868314
7621605909,Daluchara Ayorvedik Hospital,23.9965273,91.8281359
7621605910,ASR Hospital,23.8263332,91.2819867
7621605911,Venkataeswara Hospitals,23.8303963,91.2864718
7621605912,Irani Hospital,24.3650387,92.0209683
7621605914,Ambassa Government Hospital,23.9224905,91.8535273
7621605916,VHAT Eye Hospital,23.878826,91.254702
7621605917,Rajkandi Hospital,24.168476,91.958401
7621605918,Jalabasa Hospital,24.259235,92.181908
7621605923,Makunda Christian Missionary Hospital,23.9149437,91.8331377
7621605925,Homoeopathic Hospital,23.8077381,91.2981913
7621605927,Ganganagar Hospital,23.7761829,91.8458544
7621605931,Hapania Hospital,23.7848589,91.2591853
7621605933,Eye Hospital,24.3717301,92.1516952
7621605934,Kherengbar Hospital,23.7902884,91.4424673
7621605936,Krishnatilla Hospital,24.087221,92.11378
7621733287,Mercy Hospital,23.335851,92.85481
7621733288,LRM Hospital,23.744316,92.723445
7621733290,DM Hospital,23.4775412,93.3256866
7621733291,John Williams Hospital,22.882938,92.748073
7621733292,Khawhai Hospital,23.3868791,93.1267303
7621733294,Med Aim Adventist Hospital,23.4726288,93.3343849
7621733296,Hope Hospital,22.8869856,92.744105
7621733298,Rosewood Hospital,23.7311693,92.717955
7621733299,Zotres Hospital,23.68029,92.7249518
7621733300,"District Hospital , Siaha",22.4895876,92.9791567
7621733301,City Hospital,23.716618,92.7164176
7638517587,Zawlnuam Hospital,24.1331197,92.331995
8195862931,"Government Hospital, Durtlang North",23.7923544,92.7295691
8205237694,"Government Hospital, Zakhama",25.6036868,94.1225184
9140652038,Hayuliang Hospital,28.0821116,96.5245627
9376210530,Diphu Medical College,25.8319306,93.4301196
9378909936,Rengpoli Hospital,25.8483799,93.4457832
9404347698,Catholic Hospital,25.9178545,93.4412065
9463171417,Katonibari T.E. Hospital,26.6721971,94.3079145
9570931273,Puja Hospital,27.4876483,94.9187603
9653476116,Unknown,26.4524994,92.3923023
10222800618,Haflong Civil Hospital,25.1821635,93.0111217
10222803717,TB Hospital,25.180907,93.0098019
10241366020,Gangra Community Clinic,23.1111089,91.3349786
10241429256,Bhazonkora Community Health Center,23.0993318,91.3417171
10248459009,Kohima Diagnostic Center,25.6556899,94.0990558
10260401001,Batisa Union Health and Family Welfare Centre,23.1977995,91.312882
10262777719,Upazila Animal Resources Department and Veterinary Hospital,23.2215644,91.3128155
10266597779,Chauddagram Medinova Diagnostic Centre,23.2303924,91.3135754
10268879481,Family Welfare Center. Wazirpur Union,23.2440315,91.308635
10278372098,The Apollo Hospital Consultancy & Diagnostic Center.,23.3347761,91.2714191
10278399141,Meah Bazar Medical Cente,23.3366077,91.2699759
10285608845,Dr. J.K. Saikia Homeopathic Medical College & Hospital,26.7319159,94.2210406
10286789528,vatpara Hospital,23.3689659,91.2493842
10743479435,Melongkhar BHU II,27.4728264,91.6593191
10895824519,Military Hospital,25.5711799,91.8720444
11032189484,Unknown,26.4512331,92.0292256
11281494243,Swasti Hospital,26.4282202,91.6290284
11351332651,ONGC Medical Section Jorhat,26.7538629,94.2029298
11353484755,"District PHE Lab, Tura",25.5156079,90.1858984
11356598239,Pharmacy,26.4555109,94.5520485
11356598277,Pharmacy,26.491486,94.8047989
11357212788,Unknown,26.2015666,93.1341127
11357461273,water supply office,26.1040401,93.0259084
11357461274,Arogyao clinic,26.1056779,93.0282789
11357461275,Chowdhury Pharmacy,26.1060055,93.0289923
11357651010,Tura Civil Hospital,25.5150175,90.2038069
11368386087,Ruksana Medical,26.1059221,93.0298574
11378893230,Ebenezar Hospital,23.7311933,92.7078441
11577200069,Nagaland Institute of Medical Sciences and  Research (NIMSR),25.6949558,94.1232645
11687780154,Wipro GE Healthcare Private Ltd.,26.1651971,91.7795015
11833697370,Apollo Excelcare Hospital,26.1280003,91.6814189
11934315725,Tura Christian Hospital,25.5182853,90.2189168
12290565692,Unknown,24.9167936,92.7775079
12350533315,DMC main entrace gate,25.8368818,93.4304437
12462035169,Ichamati Community Health Center,25.1699082,91.6919619
12470636101,151 Base Hospital,26.1035923,91.797421
12723267937,ဘုက္ကန်တိုက်နယ်ဆေးရုံ,23.9158573,94.1848823
12747295824,သီကိရ်(ခ)တိုက်နယ်ဆေးရုံ,22.657253,93.178422
12747295830,ရိခေါဒါရ်တိုက်နယ်ဆေးရုံ,23.32653,93.39352
12809375710,Christian Mission Hospital,25.2008996,90.1850064
12976265036,MARWARI HOSPITAL,26.171787,91.7403051
12976374613,APOLLO HOSPITAL,26.1745848,91.7727582
12976833828,KIMS HOSPITAL CLINIC,26.1665774,91.7793794
12977236602,Eye care medico,26.1442034,91.7815068
13016771424,Gate Hospitals,26.1781709,91.8040736
13016790569,KGMT HOSPITAL,26.1723864,91.781511
13152710101,লংকা বি পি এইচ চি,25.9174131,92.9550879
13152868701,লংকা বি পি এইচ,25.9175556,92.9551526
13294142201,Mercy Hospital,26.347434,92.6639524
13323617001,Orthocare Hospital,26.6514037,92.7961644
13506229594,"H.M. Hospital , Hatigaon",26.130908,91.786135
13511289074,WINTROBE HOSPITAL,26.1851882,91.756084
13511399119,ADVANCE NEUROSCIENCE HOSPITAL,26.1450407,91.7852575
13511618593,Name care hospital,26.1641904,91.7693287
13511670283,NEMCARE HOSPITAL,26.1641904,91.7691448
13516613210,DOCTORS CHAMBER,26.1414434,91.726007
13516613211,SEEMA MEDICOS,26.1413861,91.7259884
13516940946,Guwahati Netralaya eye hospital,26.1713661,91.737574
13523388563,Vision hospital,26.1760095,91.7400173
13528656001,Nalbari Medical College and Hospital (NMCH),26.412844,91.512999
13823567101,Trevi Hospital,24.8397558,93.9232091
13859586303,Nagaon Medical College and Hospital,26.3658031,92.7130899